{
  "HND": {
    "iata": "HND",
    "icao": "RJTT",
    "name": "Tokyo Haneda",
    "lat": 35.5494,
    "lon": 139.7798,
    "iso_country": "JP",
    "city": "Tokyo"
  },
  "CTS": {
    "iata": "CTS",
    "icao": "RJCC",
    "name": "New Chitose",
    "lat": 42.7752,
    "lon": 141.6923,
    "iso_country": "JP",
    "city": "Sapporo"
  },
  "FUK": {
    "iata": "FUK",
    "icao": "RJFF",
    "name": "Fukuoka",
    "lat": 33.5859,
    "lon": 130.4500,
    "iso_country": "JP",
    "city": "Fukuoka"
  },
  "OKA": {
    "iata": "OKA",
    "icao": "ROAH",
    "name": "Naha",
    "lat": 26.1958,
    "lon": 127.6469,
    "iso_country": "JP",
    "city": "Naha"
  },
  "NRT": {
    "iata": "NRT",
    "icao": "RJAA",
    "name": "Narita International",
    "lat": 35.7647,
    "lon": 140.3862,
    "iso_country": "JP",
    "city": "Tokyo"
  },
  "KIX": {
    "iata": "KIX",
    "icao": "RJBB",
    "name": "Kansai International",
    "lat": 34.4347,
    "lon": 135.2441,
    "iso_country": "JP",
    "city": "Osaka"
  },
  "SIN": {
    "iata": "SIN",
    "icao": "WSSS",
    "name": "Singapore Changi",
    "lat": 1.3502,
    "lon": 103.9944,
    "iso_country": "SG",
    "city": "Singapore"
  },
  "ICN": {
    "iata": "ICN",
    "icao": "RKSI",
    "name": "Seoul Incheon",
    "lat": 37.4691,
    "lon": 126.4505,
    "iso_country": "KR",
    "city": "Seoul"
  },
  "LAX": {
    "iata": "LAX",
    "icao": "KLAX",
    "name": "Los Angeles International",
    "lat": 33.9425,
    "lon": -118.4081,
    "iso_country": "US",
    "city": "Los Angeles"
  }
}